{
    "SeoulRunningCourse" : [
    {
        "courseNo":20198,
        "course_location":"서울특별시 노원구 중계본동",
        "course_name":"서울특별시노원구_20181231_223622", 
        "course_length": 6351, 
        "course_start_latitude":37.649628,
        "course_start_longitude" : 127.078674,
        "course_final_latitude": 37.649597,
        "course_final_longitude" :127.079399,
        "course_level" :null,
        "course_time":11158,
        "course_match_count": 0
    },
    {
        "courseNo":20194069,
        "course_location":"서울특별시 강서구 발산1동",
        "course_name": "서울특별시강서구_20181231_195030", 
        "course_length": 1858,  
        "course_start_latitußde": 37.559193,
        "course_start_longitude" :126.824783 ,
        "course_final_latitude": 37.564857,
        "course_final_longitude" : 126.827415,
        "course_level" :null,
        "course_time":2729,
        "course_match_count": 0
    },
    {
        "courseNo":20193054,
        "course_location": "서울특별시 강남구 도곡1동",
        "course_name": "서울특별시강남구_20190101_082541", 
        "course_length": 3574, 
        "course_start_latitude": 37.487965, 
        "course_start_longitude" : 127.048233,
        "course_final_latitude": 37.485611, 
        "course_final_longitude" : 127.048149,
        "course_level" :null,
        "course_time": 4726,
        "course_match_count": 0
    },
    {
        "courseNo":201913,
        "course_location": "서울특별시 노원구 공릉2동",
        "course_name": "경춘선숲길공원_20181231_215733", 
        "course_length": 1009, 
        "course_start_latitude": 37.627338,
        "course_start_longitude" : 127.077278,
        "course_final_latitude": 37.623299,
        "course_final_longitude" : 127.077873,
        "course_level" : null,
        "course_time": 1431,
        "course_match_count": 0
    },
    {
        "courseNo":20194073,
        "course_location":"서울특별시 강동구 명일1동",
        "course_name": "서울특별시강동구_20190101_084324", 
        "course_length": 3244, 
        "course_start_latitude": 37.55201,
        "course_start_longitude" :127.142372,
        "course_final_latitude": 37.552113,
        "course_final_longitude" : 127.142365,
        "course_level" :null,
        "course_time": 5651,
        "course_match_count": 0
    },
    {
        "courseNo":20195089,
        "course_location": "서울특별시 용산구 원효로1동",
        "course_name": "서울특별시용산구_20181231_192242", 
        "course_length": 8269, 
        "course_start_latitude": 37.535442,
        "course_start_longitude" :126.961449,
        "course_final_latitude": 37.533653,
        "course_final_longitude" : 126.95993,
        "course_level" : null,
        "course_time": 15629,
        "course_match_count": 0
    },
    {
        "courseNo":201929,
        "course_location": "서울특별시 마포구 도화동",
        "course_name": "대현문화공원_20181231_193930", 
        "course_length": 11289, 
        "course_start_latitude": 37.537663,
        "course_start_longitude" :126.949066,
        "course_final_latitude": 37.537636,
        "course_final_longitude" : 126.949127,
        "course_level" : null,
        "course_time": 42748,
        "course_match_count":0
    },
    {
        "courseNo":20194084,
        "course_location": "서울특별시 마포구 성산2동",
        "course_name": "서울특별시마포구_20190101_071626", 
        "course_length": 2349, 
        "course_start_latitude": 37.566872,
        "course_start_longitude" :126.896408,
        "course_final_latitude": 37.560555,
        "course_final_longitude" : 126.887947,
        "course_level" :null,
        "course_time": 4438,
        "course_match_count":0
    },
    {
        "courseNo":20196108,
        "course_location": "서울특별시 용산구 이태원1동",
        "course_name": "서울특별시용산구_20190101_102140", 
        "course_length": 6030, 
        "course_start_latitude":37.530254,
        "course_start_longitude" :126.994637,
        "course_final_latitude": 37.534397,
        "course_final_longitude" : 126.993767,
        "course_level" : null,
        "course_time": 13307,
        "course_match_count":0
    },
    {
        "courseNo":20196111,
        "course_location": "서울특별시 동작구 사당2동",
        "course_name": "서울특별시동작구_20190101_095611", 
        "course_length": 9157, 
        "course_start_latitude": 37.488174 ,
        "course_start_longitude" : 126.976784,
        "course_final_latitude": 37.488121,
        "course_final_longitude" : 126.976952,
        "course_level" : null,
        "course_time": 15906,
        "course_match_count":0
    },
    {
        "courseNo": 20191066,
        "course_location": "서울특별시 중랑구 상봉1동",
        "course_name": "서울특별시중랑구_20190101_070034", 
        "course_length": 1330, 
        "course_start_latitude": 37.604881,
        "course_start_longitude" : 127.087692,
        "course_final_latitude": 37.604961,
        "course_final_longitude" : 127.0914,
        "course_level" : null,
        "course_time": 3551, 
        "course_match_count":0
    },
    {
        "courseNo":201936,
        "course_location": "서울특별시 송파구 오금동",
        "course_name": "송파나루_20181231_223637", 
        "course_length": 5180, 
        "course_start_latitude": 37.510139,
        "course_start_longitude" : 127.127907,
        "course_final_latitude": 37.514416,
        "course_final_longitude" : 127.107529,
        "course_level" : null,
        "course_time": 13054,
        "course_match_count":0
    },
    {
        "courseNo":201938,
        "course_location": "서울특별시 송파구 잠실6동",
        "course_name": "송파나루_20181231_232321", 
        "course_length": 1743, 
        "course_start_latitude": 37.510033,
        "course_start_longitude" : 127.105072,
        "course_final_latitude": 37.514454,
        "course_final_longitude" : 127.107681, 
        "course_level" : null,
        "course_time":4013, 
        "course_match_count":0
    },
    {
        "courseNo":201946,
        "course_location":"서울특별시 노원구 공릉2동",
        "course_name": "공릉동근린공원_20190101_000333", 
        "course_length": 1011, 
        "course_start_latitude":37.623154,
        "course_start_longitude" : 127.077866,
        "course_final_latitude": 37.62027,
        "course_final_longitude" : 127.083664,
        "course_level" : null,
        "course_time": 1234,
        "course_match_count":0
    },
    {
        "courseNo":201967,
        "course_location": "서울특별시 강동구 상일동",
        "course_name": "서울특별시강동구_20190101_000952", 
        "course_length": 510, 
        "course_start_latitude": 37.554485,
        "course_start_longitude" : 127.157036,
        "course_final_latitude": 37.553432,
        "course_final_longitude" : 127.157318,
        "course_level" : null,
        "course_time" : 1025,
        "course_match_count":0
    },
    {
        "courseNo":201968,
        "course_location": "서울특별시 강서구 화곡본동",
        "course_name": "서울특별시강서구_20190101_001001", 
        "course_length": 662, 
        "course_start_latitude": 37.53994,
        "course_start_longitude" : 126.844475,
        "course_final_latitude": 37.539822,
        "course_final_longitude" : 126.84436,
        "course_level" : null,
        "course_time": 1719,
        "course_match_count":0
    },
    {
        "courseNo":201960,
        "course_location": "서울특별시 강서구 화곡1동",
        "course_name": "서울특별시강서구_20181231_205623", 
        "course_length": 2253, 
        "course_start_latitude": 37.534462,
        "course_start_longitude" : 126.838135,
        "course_final_latitude": 37.548393,
        "course_final_longitude" : 126.848007,
        "course_level" : null,
        "course_time": 3506,
        "course_match_count":0
    },
    {
        "courseNo":20191080,
        "course_location": "서울특별시 강남구 세곡동",
        "course_name": "서울특별시강남구_20190101_073123", 
        "course_length": 3400, 
        "course_start_latitude": 37.465908,
        "course_start_longitude" : 127.093651,
        "course_final_latitude": 37.466526,
        "course_final_longitude" : 127.093071,
        "course_level" : null,
        "course_time": 3904,
        "course_match_count":0
    },
    {
        "courseNo":20192076,
        "course_location": "서울특별시 동대문구 회기동",
        "course_name": "서울특별시동대문구_20190101_082041", 
        "course_length": 344, 
        "course_start_latitude": 37.589363,
        "course_start_longitude" : 127.051239,
        "course_final_latitude": 37.575302,
        "course_final_longitude" : 127.04422, 
        "course_level" : null,
        "course_time": 2458,
        "course_match_count":0
    }   
]
}