{
	"course" : [
	{
		"course_no" : 1,
		"course_name" : "경춘선숲길공원_20181231_215",
		"course_location" : "서울특별시 노원구 공릉2동",
		"course_length" : 1009.000,
		"course_start_latitude" : 37.6273380,
		"course_start_longitude" : 127.0772780,
		"course_final_latitude" : 37.6232990,
		"course_final_longitude" : 127.0778730,
		"course_level" : 0,
		"course_time" : "00:14:31",
		"course_match_count" : 0,
		"course_describe" : "경춘선공원 / 숲길은 옛 경춘선 구간의 폐철길을 공원으로 탈바꿈시킨 서울의 도시재생 프로젝트의 일환이다. 선로를 그대로 남겨 두었지만, 선로길을 따라 옆에 자전거 도로와, 인도가 조성되어 있다. 길이는 6km, 길게는 10km정도의 러닝 코스 이며, 보행로가 조성되어 있고, 철교 아래로 흐르는 중랑천을 따라 이어진 산책로와 자전거도로가 연계되어 주변에 사는 사람들이 많이 방문한다. 러닝 코스 외에도 폐전동차, 증기기관차 모형도 있어 다양한 체험을 해 볼 수 있다. 숲길인 만큼 그늘도 조성이 되어 있다."
	},
	{
		"course_no" : 2,
		"course_name" : "공릉동근린공원_20190101_000",
		"course_location" : "서울특별시 노원구 공릉2동",
		"course_length" : 1011.000,
		"course_start_latitude" : 37.6231540,
		"course_start_longitude" : 127.0778660,
		"course_final_latitude" : 37.6202700,
		"course_final_longitude" : 127.0836640,
		"course_level" : 0,
		"course_time" : "00:12:34",
		"course_match_count" : 0,
		"course_describe" : "공릉공원은 공릉동 근린공원으로 알려져 있으며, 중랑천에서 갈라져 나온 물줄기를 따라 조성이 되어 있다. 이곳의 특징은 주변의 다른 공원들과 서로 이어져 오고갈 수 있으며, 화랑대 철도공원을 거쳐 육군사관학교, 태릉 산책로까지 갈 수 있다. 주변의 다른 러닝 코스가 많아(경춘선공원, 과기대 트랙) 사람이 적은 것도 메리트이다."
	},
	{
		"course_no" : 3,
		"course_name" : "대현문화공원_20181231_1939",
		"course_location" : "서울특별시 마포구 도화동",
		"course_length" : 11289.000,
		"course_start_latitude" : 37.5376630,
		"course_start_longitude" : 126.9490660,
		"course_final_latitude" : 37.5376360,
		"course_final_longitude" : 126.9491270,
		"course_level" : 0,
		"course_time" : "04:27:48",
		"course_match_count" : 0,
		"course_describe" : "대현공원은 마포구에 위치 하고 있으며 마포초등학교 바로 옆에 위치해 있다. 이 코스는 마포초등학교에서 시작하여 효창공원까지 가는 코스이다. 도심에서 달리다 한적한 공원으로 가는 코스이기 때문에 지루하지 않게 달릴 수 있다. 평탄한 코스가 장점이다."
	},
	{
		"course_no" : 4,
		"course_name" : "서울특별시강남구_20190101_07",
		"course_location" : "서울특별시 강남구 세곡동",
		"course_length" : 3400.000,
		"course_start_latitude" : 37.4659080,
		"course_start_longitude" : 127.0936510,
		"course_final_latitude" : 37.4665260,
		"course_final_longitude" : 127.0930710,
		"course_level" : 0,
		"course_time" : "00:39:04",
		"course_match_count" : 0,
		"course_describe" : "세곡천 코스는 주변의 양재천, 탄천에 못지 않은 훌륭한 코스이다. 자전거와 차량을 만날 일이 없어 러닝에 집중할 수 있으며, 달리던 도중 탄천과 연계되는 곳이 있어 달리기를 더 연장할 수도 있다. 강남 둘레길 2 코스에도 포함이 되어 있기 때문에 주변의 다른 곳도 들릴 수 있다."
	},
	{
		"course_no" : 5,
		"course_name" : "서울특별시강남구_20190101_08",
		"course_location" : "서울특별시 강남구 도곡1동",
		"course_length" : 3574.000,
		"course_start_latitude" : 37.4879650,
		"course_start_longitude" : 127.0482330,
		"course_final_latitude" : 37.4856110,
		"course_final_longitude" : 127.0481490,
		"course_level" : 0,
		"course_time" : "00:47:26",
		"course_match_count" : 0,
		"course_describe" : "도곡근린공원은 산지형 공원으로 사방으로 산책로가 있어 접근이 용이하다. 전형적인 산지형 공원이기 때문에 오르막, 내리막이 반복 되지만, 등산을 하는 듯한 느낌을 받을 수 있는 러닝 코스 이다. 숙련도가 높은 러너들에게 추천이 된다."
	},
	{
		"course_no" : 6,
		"course_name" : "서울특별시강동구_20190101_00",
		"course_location" : "서울특별시 강동구 상일동",
		"course_length" : 510.000,
		"course_start_latitude" : 37.5544850,
		"course_start_longitude" : 127.1570360,
		"course_final_latitude" : 37.5534320,
		"course_final_longitude" : 127.1573180,
		"course_level" : 0,
		"course_time" : "00:10:25",
		"course_match_count" : 0,
		"course_describe" : "명일 공원 코스는 강동구 상일동에 위치하여 있다. 명일공원은 서울시에서도 쉽게 찾아보기 힘든 대규모의 공원이다. 나지막한 산에 숲이 우거져 있어 훌륭한 산책코스이며, 언덕이 조금 많기 때문에 중급자에게 추천이 된다. 산책로와 생태 연못 등으로 구성되어 있어, 러닝과 휴식의 조화가 잘 이루어질 수 있다. "
	},
	{
		"course_no" : 7,
		"course_name" : "서울특별시강동구_20190101_08",
		"course_location" : "서울특별시 강동구 명일1동",
		"course_length" : 3244.000,
		"course_start_latitude" : 37.5520100,
		"course_start_longitude" : 127.1423720,
		"course_final_latitude" : 37.5521130,
		"course_final_longitude" : 127.1423650,
		"course_level" : 0,
		"course_time" : "00:56:51",
		"course_match_count" : 0,
		"course_describe" : "명우 공원 코스는 강동구 명일 1동에 위치하여 있다. 명우 공원은 명우 어린이공원이라는 이름을 가지고 있으며, 해당 공원을 반복해서 도는 코스로 이루어져 있다. 이 러닝 코스는 평지이기 때문에 초심자부터 달릴 여건이 갖추어져 있고, 공원 내를 순환하기 때문에 보행자를 제외하면 다른 위험요소가 없다는 장점이 있다"
	},
	{
		"course_no" : 8,
		"course_name" : "서울특별시강서구_20181231_19",
		"course_location" : "서울특별시 강서구 발산1동",
		"course_length" : 1858.000,
		"course_start_latitude" : 37.5591930,
		"course_start_longitude" : 126.8247830,
		"course_final_latitude" : 37.5648570,
		"course_final_longitude" : 126.8274150,
		"course_level" : 0,
		"course_time" : "00:27:29",
		"course_match_count" : 0,
		"course_describe" : "마곡하늬공원 코스는 강서구 발산1동에 위치하여 있다. 마곡하늬공원은 조성된지 얼마 안된 공원으로 특이하게 공원 내곽, 외곽으로 러닝코스가 나뉘는 것이 특징이다. 생긴지 얼마 안되었기 때문에 인도의 상태가 좋은 편이며, 탁 트인 공원이기 때문에 시야에 방해되는 곳도 없다. 공원 내곽, 외곽 내가 원하는 곳을 골라 마음껏 뛸 수 있으며, 경사도가 거의 없는 편이다."
	},
	{
		"course_no" : 9,
		"course_name" : "서울특별시강서구_20181231_20",
		"course_location" : "서울특별시 강서구 화곡1동",
		"course_length" : 2253.000,
		"course_start_latitude" : 37.5344620,
		"course_start_longitude" : 126.8381350,
		"course_final_latitude" : 37.5483930,
		"course_final_longitude" : 126.8480070,
		"course_level" : 0,
		"course_time" : "00:35:06",
		"course_match_count" : 0,
		"course_describe" : "월정 어린이 공원 코스이다. 강서구 화곡1동에 위치하여 있으며, 혼자서 러닝을 하려는 사람에게 추천한다. 평탄한 코스이기 때문에 산책 위주의 코스가 될 것이며, 인근 러너들이 몸 풀기 용도로 사용되는 코스이다."
	},
	{
		"course_no" : 10,
		"course_name" : "서울특별시강서구_20190101_00",
		"course_location" : "서울특별시 강서구 화곡본동",
		"course_length" : 662.000,
		"course_start_latitude" : 37.5399400,
		"course_start_longitude" : 126.8444750,
		"course_final_latitude" : 37.5398220,
		"course_final_longitude" : 126.8443600,
		"course_level" : 0,
		"course_time" : "00:17:19",
		"course_match_count" : 0,
		"course_describe" : "까치산 근린공원 코스는 정말 가벼운 산책로이다. 산지형 공원이며 강서 둘레길 1코스에 포함이 되어 있다. 러닝 코스 외에도 다양한 체육시설이 있어 동네 주민들이 많이 찾으며, 애견과 함께 조깅을 하는 사람들을 많이 찾아볼 수 있다."
	},
	{
		"course_no" : 11,
		"course_name" : "서울특별시노원구_20181231_22",
		"course_location" : "서울특별시 노원구 중계본동",
		"course_length" : 6351.000,
		"course_start_latitude" : 37.6496280,
		"course_start_longitude" : 127.0786740,
		"course_final_latitude" : 37.6495970,
		"course_final_longitude" : 127.0793990,
		"course_level" : 0,
		"course_time" : "01:11:58",
		"course_match_count" : 0,
		"course_describe" : "과학 기술 대학교 트랙은 러닝 하는 사람들의 성지라고 불린다. 육상용 400미터 트랙은 탄성이 매우 좋아 오래 달려도 발에 무리가 덜 가도록 설계가 되어 있어 그야말로 달리는 맛이 난다는 평이 많다. "
	},
	{
		"course_no" : 12,
		"course_name" : "서울특별시동대문구_20190101_0",
		"course_location" : "서울특별시 동대문구 회기동",
		"course_length" : 344.000,
		"course_start_latitude" : 37.5893630,
		"course_start_longitude" : 127.0512390,
		"course_final_latitude" : 37.5753020,
		"course_final_longitude" : 127.0442200,
		"course_level" : 0,
		"course_time" : "00:24:58",
		"course_match_count" : 0,
		"course_describe" : "홍릉근린공원 코스는 동대문구에 위치하여 있다. 이곳의 단점은 공원까지 올라가는 길이 오르막길이다. 산지형 공원이기 때문에 난이도는 조금 있지만, 그늘이 많고, 중간중간에 벤치도 많아 러닝과 휴식의 조화를 잘 이룰 수 있다. 계단이 많지 않아 다른 산지형 공원보다 달릴 환경이 좋다는 장점도 있습니다."
	},
	{
		"course_no" : 13,
		"course_name" : "서울특별시동작구_20190101_09",
		"course_location" : "서울특별시 동작구 사당2동",
		"course_length" : 9157.000,
		"course_start_latitude" : 37.4881740,
		"course_start_longitude" : 126.9767840,
		"course_final_latitude" : 37.4881210,
		"course_final_longitude" : 126.9769520,
		"course_level" : 0,
		"course_time" : "01:59:06",
		"course_match_count" : 0,
		"course_describe" : "삼일 공원 코스는 규모는 작은 편에 속하는 코스이며 사당 주변에 사는 사람들이 자주 찾는 코스이다. 놀이터와 운동 기구, 조깅 코스 뿐만 아니라 계단이나 언덕부분도 존재하여 효율적으로 러닝을 할 수 있는 위치이다. 소규모 달리기와 동네 친구들가 뛰기 좋은 코스이다."
	},
	{
		"course_no" : 14,
		"course_name" : "서울특별시마포구_20190101_07",
		"course_location" : "서울특별시 마포구 성산2동",
		"course_length" : 2349.000,
		"course_start_latitude" : 37.5668720,
		"course_start_longitude" : 126.8964080,
		"course_final_latitude" : 37.5605550,
		"course_final_longitude" : 126.8879470,
		"course_level" : 0,
		"course_time" : "00:44:38",
		"course_match_count" : 0,
		"course_describe" : "월드컵 공원 코스는 대표 공원인 평화의 공원을 비롯해 하늘공원, 노을공원, 난지천공원, 난지한강공원의 5개 테마 공원으로 구성이 되어 있다. 한강변의 쓰레기 매립장을 생태공원으로 탈바꿈 시켰다. 5개의 공원 중 입맛에 맞추어 골라서 뛸 수 있다. 한강이 바로 보이기 때문에 경치도 좋다. 난지천공원에 오르막길이 있는데 이곳이 마의 구간이다. 월드컵공원의 두 쓰레기산을 한바퀴 돌면 5.8km이다. 시설들이나 노면 상태를 잘 해놔서 달리기에 매우 좋다. 전망도 좋기 때문에 서울이나 근교에 살면 한번쯤 가볼만한 곳이다. "
	},
	{
		"course_no" : 15,
		"course_name" : "서울특별시용산구_20181231_19",
		"course_location" : "서울특별시 용산구 원효로1동",
		"course_length" : 8269.000,
		"course_start_latitude" : 37.5354420,
		"course_start_longitude" : 126.9614490,
		"course_final_latitude" : 37.5336530,
		"course_final_longitude" : 126.9599300,
		"course_level" : 0,
		"course_time" : "01:56:29",
		"course_match_count" : 0,
		"course_describe" : "경의선 숲길 코스는 경춘선숲길처럼 버려친 철길에서 시민들의 문화 산책로로 탈바꿈 되었다. 이곳은 마포구에서 용산구까지 이어진 총 6.3km의 선형 공원이며 구간별로 잘 나뉘어져 있어 원하는 대로 뛸 수 있다. 연남동구간(1.2km), 와우교구간(0.3km), 신수,대흥,염리동구간(1.3km), 새창고개,원효로 구간(0.9km) 등으로 이루어져 있다. 평지로 이루어져 순탄하다. 사람들이 조금 많지만 그만큼 좋은 코스라는 것을 알 수 있다."
	},
	{
		"course_no" : 16,
		"course_name" : "서울특별시용산구_20190101_10",
		"course_location" : "서울특별시 용산구 이태원1동",
		"course_length" : 6030.000,
		"course_start_latitude" : 37.5302540,
		"course_start_longitude" : 126.9946370,
		"course_final_latitude" : 37.5343970,
		"course_final_longitude" : 126.9937670,
		"course_level" : 0,
		"course_time" : "01:33:07",
		"course_match_count" : 0,
		"course_describe" : "용산 공원 코스는 요즘에 러너들이 많이 찾는 곳이다. 용산기지가 있던 곳에서 이전함에 따라 공터로 남는 이곳을 활요하기 위해 계획된 국가공원이다. 이곳은 개발 예정 공원까지 다 개발이 된다면 도보 10분이내 지하철역만 무려 9개나 된다. 아직 다 열리지는 않았지만, 부분개방 부지만 해도 훌륭하다. 미군장교숙소 부지를 국민들에게 개방 하였으며 이 주변을 따라 한바퀴 도는 식으로 러닝할 수 있다. "
	},
	{
		"course_no" : 17,
		"course_name" : "서울특별시중랑구_20190101_07",
		"course_location" : "서울특별시 중랑구 상봉1동",
		"course_length" : 1330.000,
		"course_start_latitude" : 37.6048810,
		"course_start_longitude" : 127.0876920,
		"course_final_latitude" : 37.6049610,
		"course_final_longitude" : 127.0914000,
		"course_level" : 0,
		"course_time" : "00:35:51",
		"course_match_count" : 0,
		"course_describe" : "중랑천 코스는 한강과 거의 비슷할 정도의 러닝 인구를 보유하고 있다. 한강보다 좋은 점은 그늘이 훨씬 더 많고, 중랑천은 한강만큼 크진 않지만 강가를 돌아 뛰기 편한 곳이며 응봉역을 지나 옥수역까지 갈 수 있고 서울숲, 뚝섬, 성수역까지 갈 수 있는 코스이다.  가볍게 조깅을 할 수 있는 코스이며 초보자에게도 추천하는 코스이다."
	},
	{
		"course_no" : 18,
		"course_name" : "송파나루_20181231_223637",
		"course_location" : "서울특별시 송파구 오금동",
		"course_length" : 5180.000,
		"course_start_latitude" : 37.5101390,
		"course_start_longitude" : 127.1279070,
		"course_final_latitude" : 37.5144160,
		"course_final_longitude" : 127.1075290,
		"course_level" : 0,
		"course_time" : "01:30:54",
		"course_match_count" : 0,
		"course_describe" : "올림픽 공원 코스는 몽촌토성을 중심으로 43만평의 올림픽 공원에 위치한 코스이다. 호반의 길, 토성의 길, 추억의길, 연인의길, 젊음의 길 등 여러 산책은 물론 러닝과 조깅을 즐기기 좋은 코스들이 구성되어 있다. 이 중 젊음의 길은 3.1km가량의 길이로 되어 있으며 이곳은 각종 마라톤 대회나 달리기 대회의 장소로 널리 쓰이고 있다. 200m마다 거리 표시가 되어 있으며, 공원 내 토성에서 언덕 훈련도 가능해서 더욱 좋다."
	},
	{
		"course_no" : 19,
		"course_name" : "송파나루_20181231_232321",
		"course_location" : "서울특별시 송파구 잠실6동",
		"course_length" : 1743.000,
		"course_start_latitude" : 37.5100330,
		"course_start_longitude" : 127.1050720,
		"course_final_latitude" : 37.5144540,
		"course_final_longitude" : 127.1076810,
		"course_level" : 0,
		"course_time" : "00:40:13",
		"course_match_count" : 0,
		"course_describe" : "석촌 호수 코스는 잠실역 롯데 타워 앞에 위치 하여 있어서 한바퀴가 2.5km인 위치이다. 금요일 , 주말에는 사람들이 많이 몰릴 수 있는 위치이며 2.5km를 계속해서 뛰는 코스이다. 페이스 측정을 하고자 하는 사람들과 마라톤을 준비하는 사람들이 준비를 하기 위해서 많이 뛰며 찾는 코스이다."
	}
]
}
	